{
    "name" : ".Lub d",
    "detail" : "Lub d (หลับดี) ภูเก็ต โฮสเทล ตั้งอยู่ใกล้หาดป่าตอง เป้นโฮสเทลขนาดใหญ่ มีห้องพักทั้งหมด 187 ห้อง แบ่งเป็น Deluxe, Junior และ Dorm ภายในตกแต่งอย่างสวยงาม เน้นสีขาวดูสบายตา พร้อมด้วยสิ่งอำนวยความสะดวกครบครัน มีพื้นที่นั่งเล่น ร้านอาหาร ยิมมวยไทย สระว่ายน้ำ Co-Working Space รวมถึงบริการฟรี WI-FI ทุกพื้นที่",
    "price" : 600,
    "location": {
        "lat" : 7.8975257,
        "lng" : 98.2983658
    },
    "allotment": 0
}
{
    "name" : "Pause Kathu",
    "detail" : "Pause Kathu โฮสเทลสไตล์อินดัสเทรียล ตกแต่งสวยชิค มีห้องพักทั้งแบบ Private และ Dorm ให้ได้เลือกพักแบบสบายๆ เหมือนอยู่ที่บ้าน บริการสิ่งอำนวยความสะดวกมากมาย ทั้งฟรี Wi-Fi ที่จอดรถ บริการรับ-ส่งสนามบิน นอกจากนี้ที่พักยังตั้งอยู่ไม่ห่างจากหาดป่าตองและตัวเมืองภูเก็ต ใช้เวลาเดินทางไปเพียง 15 นาทีเท่านั้น",
    "price" : 350,
    "location": {
        "lat" : 7.8995994,
        "lng" : 98.3500384
    },
    "allotment": 1
}
{
    "name" : "Lupta Hostel Patong Hideaways",
    "detail" : "Lupta (ลับตา) โฮสเทลเล็กๆ แต่สะดวกสบาย บริการห้องพักแบบ Dorm มีห้องรวม 4 เตียง ห้องรวม 8 เตียง และ Dorm สำหรับผู้หญิง ตกแต่งสไตล์โมเดิร์น สวยชิค พร้อมสิ่งอำนวยความสะดวก ทั้งห้องรับประทานอาหาร โทรทัศน์ ฟรีอินเทอร์เน็ต บรรยากาศดี นอกจากนี้ยังตั้งอยู่ใกล้หาดป่าตอง โดยใช้เวลาเดินเพียง 2 นาที",
    "price" : 1000,
    "location": {
        "lat" : 7.89471,
        "lng" : 98.295836
    },
    "allotment": 10
}
{
    "name" : "Bed Hostel",
    "detail" : "Bed Hostel บริการห้องพักหลากสไตล์ มีทั้งห้อง Private และ Dorm อีกทั้งยังแบ่งเป็นห้องแอร์และห้องพัดลม ให้เลือกพักได้ตามสะดวก นอกจากนี้ยังครบครันด้วยสิ่งอำนวยความสะดวกต่างๆ ทั้งส่วนของล็อบบี้น่านั่งชิลล์ มุมขนม โซนซักอบรีด มีบริการเช่าจักรยานและมอเตอร์ไซค์ และฟรี Wi-Fi",
    "price" : 350,
    "location": {
        "lat" : 7.8852691,
        "lng" : 98.3931492
    },
    "allotment": 20
}
{
    "name" : "BearPacker Patong Hostel",
    "detail" : "BearPacker Patong Hostel โฮสเทลใกล้หาดป่าตองที่ใช้เวลาเดินไม่นานก็ถึงหาด มีห้องพักทั้งแบบ Private และ Dorm มีห้อง Female Dorm สำหรับสาวๆ และครบครันด้วยสิ่งอำนวยความสะดวกต่างๆ ด้วยพื้นที่ส่วนกลางที่กว้างขวาง สระว่ายน้ำ ร้านอาหารและ มีฟรี Wi-Fi ในทุกพื้นที ทำให้โฮสเทลแห่งนี้ได้รับความนิยมจากนักท่องเที่ยวเป็นอย่างมาก",
    "price" : 450,
    "location": {
        "lat" : 7.8961405,
        "lng" : 98.2964403
    },
    "allotment": 5
}
{
    "name" : "Dfeel Hostel",
    "detail" : "Dfeel Hostel โฮสเทลที่สะดวกสบายและราคาประหยัด ตั้งอยู่ในหาดป่าตอง ซึ่งเป็นหาดที่มีชื่อเสียงมากที่สุดของภูเก็ต บริการห้องพักแบบ Private และ Dorm ตกแต่งเก๋ๆ สไตล์เรโทรวินเทจ ครบครันด้วยสิ่งอำนวยความสะดวก บรรยากาศดีแบบที่จะทำให้ผู้มาพักรู้สึกดีเหมือนชื่อโฮสเทลอย่างแน่นอน",
    "price" : 400,
    "location": {
        "lat" : 7.90435,
        "lng" : 98.304452
    },
    "allotment": 7
}
{
    "name" : "Fullfill Phuket",
    "detail" : "Fullfill Phuket ที่พักใจกลางเมืองภูเก็ต ห้องพักมีให้เลือกทั้ง Private Room, Twin Shared Bathroom และ Dorm ตกแต่งสวยน่านอน มีความสงบเป็นส่วนตัว และสะดวกสบายด้วยสิ่งอำนวยความสะดวกต่างๆ มีฟรี Wi-Fi บริการเช่ารถยนต์และรถจักรยาน นอกจากนี้ยังตั้งอยู่ห่างจากเมืองเก่าภูเก็ตเพียง 300 เมตร",
    "price" : 300,
    "location": {
        "lat" : 7.8831313,
        "lng" : 98.3900416
    },
    "allotment": 2
}
{
    "name" : "2W Café & bed",
    "detail" : "2W Café & bed ที่พักสไตล์โมเดิร์นลอฟต์ที่เหมาะกับแบ็กแพ็กเกอร์สายฮิป มีห้องพักหลายรูปแบบทั้ง Double, Twin, Deluxe, Mixed Dormitory และ Ladies Dorm บรรยากาศชิลล์ๆ เหมาะกับวันพักผ่อน นอกจากนี้ยังมีโซนคาเฟ่บริเวณชั้น 1 ที่เสิร์ฟอาหารโฮมเมด สามารถไปฝากท้องได้ทุกเมื่อ",
    "price" : 350,
    "location": {
        "lat" : 7.878579,
        "lng" : 98.393361
    },
    "allotment": 16
}
{
    "name" : "Eco Hostel",
    "detail" : "Eco Hostel คือที่พักสไตล์รักษ์โลกในคอนเซ็ปต์ Sleep Box Eco Style ให้เหล่านักเดินทางได้เปิดประสบการณ์ใหม่กับห้องพักแบบ Dorm และ Private ที่ตกแต่งเน้นใช้วัสดุรีไซเคิล มีความสะดวกสบาย นอกจากนี้ยังตั้งอยู่ใจกลางเมืองภูเก็ต ใกล้แหลางชุมชน สวนสาธารณะและห้างสรรพสินค้า",
    "price" : 300,
    "location": {
        "lat" : 7.8828014,
        "lng" : 98.3978326
    },
    "allotment": 100
}
{
    "name" : "Hao Hostel",
    "detail" : "Hao (หาว) โฮสเทลใจกลางเมืองภูเก็ต บริการห้องพักแบบ Private และ Dorm ตกแต่งเน้นสีขาว ดูโปร่งสบายตา พร้อมสิ่งอำนวยความสะดวก ทั้งอินเทอร์เน็ต ฟรี Wi-Fi คาเฟ่และบาร์ พื้นที่นั่งเล่น โซนซักอบรีด และตู้ล็อกเกอร์ส่วนตัว โฮสเทลแห่งนี้ตังอยู่ใกล้เมืองเก่าภูเก็ต และยัง",
    "price" : 300,
    "location": {
        "lat" : 7.8837416,
        "lng" : 98.3947829
    },
    "allotment": 200
}
{
    "name" : "The Arbern Hostel x Bistro",
    "detail" : "Located in Talat Yai- this hotel is within a 10-minute walk of Limelight Avenue Phuket and Phuket Trickeye Museum. Bangkok Hospital Phuket and Ratsada Pier are also within 3 miles (5 km).",
    "price" : 800,
    "location": {
        "lat" : 7.8882176,
        "lng" : 98.3933994
    },
    "allotment": 60
}
{
    "name" : "Goodnight Hostel",
    "detail" : "Goodnight Hostel ตั้งอยู่บริเวณถนนคนเดินในใจกลางเมืองลิสบอน ท่ามกลางบรรยากาศย้อนยุค ห่างจากสถานีรถไฟใต้ดิน Rossio โดยใช้เวลาเดิน 2 นาที และห่างจากซูเปอร์มาร์เก็ตที่ใกล้ที่สุด 150 ม.",
    "price" : 1200,
    "location": {
        "lat" : 7.8850391,
        "lng" : 98.3924599
    },
    "allotment": 1
}
{
    "name" : "White Wall Poshtel",
    "detail" : "White Wall Poshtel ตั้งอยู่ในตัวเมืองภูเก็ต ห่างจากย่านเมืองเก่าภูเก็ตไม่เกิน 600 ม.",
    "price" : 700,
    "location": {
        "lat" : 7.8853406,
        "lng" : 98.3925267
    },
    "allotment": 6
}
{
    "name" : "Book a Bed Poshtel",
    "detail" : "ที่พักในตัวเมืองภูเก็ตที่มีจุดเด่นอยู่ที่สระว่ายน้ำทอดตัวยาวขนานไปกับตัวโฮสเทล สร้างบรรยากาศการพักผ่อนให้เหมือนโรงแรมหรูมากกว่าภาพลักษณ์ของโฮสเทลที่ไม่มีสิ่งอำนวยความสะดวกใดนอกจากเอาไว้นอน ด้านในเน้นตกแต่งด้วยโทนขาวสีสว่าง คงความเท่ด้วยเฟอร์นิเจอร์ซึ่งทำจากเหล็กและไม้ ที่นี่มีสวนสวย ล็อบบี้เปิดให้บริการตลอด 24 ชั่วโมง มีแม่บ้านทำความสะอาด และที่สำคัญใกล้กับสถานที่ท่องเที่ยวใหญ่ๆ ห่างจากตัวเมืองภูเก็ตเพียง 400 เมตรเท่านั้น",
    "price" : 700,
    "location": {
        "lat" : 7.8867899,
        "lng" : 98.3913715
    },
    "allotment": 8
}
{
    "name" : "Aekkeko hostel",
    "detail" : "Aekkeko Hostel ตั้งอยู่ในตัวเมืองภูเก็ต ห่างจากบ้านชินประชา 200 ม. และห่างจากพิพิธภัณฑ์ไทยหัว 300 ม.",
    "price" : 700,
    "location": {
        "lat" : 7.8849583,
        "lng" : 98.3862765
    },
    "allotment": 70
}
{
    "name" : "ดูเล โฮสเทล",
    "detail" : "ส่วนใครกำลังเล็งที่พักริมชายหาด เราหามาเสิร์ฟให้แล้ว! เดิน 1 นาทีจากที่พักก็ไปเดินชิลล์เลียบหาด รับแสงแดดและไอทะเลที่หาดกะรนแล้ว โซนห้องพักมีให้เลือก 2 แบบ ห้องพักรวมหญิง และห้องพักรวมชาย-หญิง พร้อมสิ่งอำนวยความสะดวกครบครัน ไม่ว่าจะห้องครัว ห้องนั่งเล่น Free wifi ส่วนเรื่องอาหารการกินที่นี่ก็มีคาเฟ่ให้บริการ",
    "price" : 450,
    "location": {
        "lat" : 7.8338593,
        "lng" : 98.2953677
    },
    "allotment": 2
}
{
    "name" : "Quadromania",
    "detail" : "ที่พักรูปร่างละม้ายคล้ายคิวบิคทรงจัตุรัสแห่งนี้ไม่ได้เป็นโฮสเทลซะทีเดียว แต่เรียกตัวเองว่าเป็นเซอร์วิสอพาร์ตเมนต์ที่รองรับลูกค้าทั้งขาจรและขาประจำ  นอกจากราคาที่เป็นมิตรแล้ว ดีไซน์ก็เก๋ แปลก และแตกต่างจากที่อื่นอย่างสิ้นเชิง จึงทำให้มีลูกค้าแวะเวียนมาไม่ขาดสาย ตกแต่งสวยงาม ตั้งอยู่ในตัวเมืองภูเก็ตก็เดินทางสะดวกอีกนั่นแหละ สิ่งที่เราชอบ: ที่นี่รองรับลูกค้าทั้งแบบรายวัน รายสัปดาห์ และรายเดือน ราคาห้องพักส่วนตัวในราคาเริ่มต้นที่ถูกมากๆ เมื่อเทียบกับได้อยู่ในสถาปัตยกรรมแปลกๆ แบบนี้อีกด้วย",
    "price" : 600,
    "location": {
        "lat" : 7.888964,
        "lng" : 98.37872
    },
    "allotment": 7
}
{
    "name" : "Latelier Poshtel Phuket",
    "detail" : "แค่โครงสร้างแบบดิบเถื่อนที่โดดเด่นจากสถานที่อื่นโดยรอบ ก็ชวนให้เราอยากเข้าเช็กอินขึ้นมาตะหงิดๆ ยิ่งพบว่าการตกแต่งด้านในนั้นตระการตาชวนตกตะลึงกว่าด้านนอกมาโข มีบรรยากาศเคร่งขรึมแบบโกธิกและกลิ่นอายของสถาปัตยกรรมยุโรปในยุคคลาสสิกผสมผสาน แต่หากคุณคิดว่าห้องนอนของ L’atelier จะทะมึนหม่นอย่างพื้นที่ส่วนกลางแล้วล่ะก็ เราขอบอกว่าผิด ทุกห้องตกแต่งด้วยโทนสีสว่าง สะอาดตา มีหน้าต่างบานโตเปิดรับแสงธรรมชาติเพื่อความรู้สึกอบอุ่นเหมือนอยู่บ้าน แต่ละส่วนแบ่งพื้นที่ชัดเจน แม้ห้องพักแบบเตียงรวมก็รู้สึกปลีกวิเวกได้",
    "price" : 600,
    "location": {
        "lat" : 7.9041752,
        "lng" : 98.3663578
    },
    "allotment": 4
}
{
    "name" : "Borbaboom Poshtel",
    "detail" : "แม้ไม่ติดทะเล อยู่ใจกลางเมืองเก่า แต่มีจริตและบรรยากาศของวันพักผ่อนริมหาดท่ามกลางแสงแดดอยู่เต็มร้อย โดยเฉพาะบริเวณดาดฟ้าซึ่งเป็นสถานที่ตั้งของสระว่ายน้ำขนาดกำลังดี ไม่เล็ก ไม่ใหญ่ แต่ก็ว่ายเล่นได้จนเหนื่อย โครงสร้างเป็นอาคารพาณิชย์เก่าอายุกว่า 50 ปี ที่ถูกนำมารีโนเวตใหม่ทั้งหลัง เน้นสีขาวสว่างเพื่อความสะอาดสบายตา เสริมความเก๋ด้วยสีเทอร์ควอยซ์ และเฟอร์นิเจอร์แบบกลางแจ้ง เปิดให้บริการห้องพักหลายแบบ มีทั้งแบบเตียง 2 ชั้น แบบแคปซูล และห้องส่วนตัว ภาพรวมที่ไม่จัดจ้านและเหมาะแก่การพักผ่อน",
    "price" : 450,
    "location": {
        "lat" : 7.8831087,
        "lng" : 98.3900951
    },
    "allotment": 19
}
{
    "name" : "Na siam",
    "detail" : "เป็นโรงแรมภูเก็ตที่อยู่ในย่านเมืองเก่าที่แอบอยู่ในซอยนิดหน่อย แต่กลมกลืนกับพื้นที่มาก ๆ สะดวกสบายต่อการเดินทาง ห้องพักใหม่สะอาด สวยงาม กว้างขวางดี เตียงนอนสบาย แถมพิกัดโรงแรมยังอยู่ใกล้กับศูนย์อาหารฮกเกี้ยน ที่เป็นอาหารพื้นเมืองภูเก็ต หน้าซอยมีร้าน “อาโป้งแม่สุณี” และโอ๋วเอ๋ว “แป๊ะหลี่” เจ้าเด็ด เจ้าดังของภูเก็ตอีกด้วยนะคะ",
    "price" : 790,
    "location": {
        "lat" : 7.88596,
        "lng" : 98.38675
    },
    "allotment": 20
}